{
"type": "FeatureCollection",
"crs": { "type": "name", "properties": { "name": "urn:ogc:def:crs:OGC:1.3:CRS84" } },
                                                                                
"features": [
{ "type": "Feature", "id": 0, "properties": { "Name": "Esplanadinpuiston yleisövessa, Rakennusvirasto, Helsinki", "Description": "Teatteriesplanadi, 00130 Helsinki<br>09 310 39000<br><a href=\"http:\/\/www.hel.fi\/hki\/HKR\/fi\/Viraston+palvelut+A__\/Yleis_vessat\" target=\"_blank\">kotisivut<\/a>" }, "geometry": { "type": "Point", "coordinates": [ 24.94495, 60.167225, 0.0 ] } },
{ "type": "Feature", "id": 1, "properties": { "Name": "Hakaniementorin yleisövessa, Rakennusvirasto, Helsinki", "Description": "Hakaniementori, 00530 Helsinki<br>09 310 39000<br><a href=\"http:\/\/www.hel.fi\/hki\/HKR\/fi\/Viraston+palvelut+A__\/Yleis_vessat\" target=\"_blank\">kotisivut<\/a>" }, "geometry": { "type": "Point", "coordinates": [ 24.952644, 60.178505, 0.0 ] } },
{ "type": "Feature", "id": 2, "properties": { "Name": "Hesperian esplanadin yleisövessa, Rakennusvirasto, Helsinki", "Description": "Pohjoinen Hesperiankatu 21, 00260 Helsinki<br>09 310 39000<br><a href=\"http:\/\/www.hel.fi\/hki\/HKR\/fi\/Viraston+palvelut+A__\/Yleis_vessat\" target=\"_blank\">kotisivut<\/a>" }, "geometry": { "type": "Point", "coordinates": [ 24.922058, 60.176926, 0.0 ] } },
{ "type": "Feature", "id": 3, "properties": { "Name": "Hietalahdentorin yleisövessa, Rakennusvirasto, Helsinki", "Description": "Hietalahdentori, 00180 Helsinki<br>09 310 39000<br><a href=\"http:\/\/www.hel.fi\/hki\/HKR\/fi\/Viraston+palvelut+A__\/Yleis_vessat\" target=\"_blank\">kotisivut<\/a>" }, "geometry": { "type": "Point", "coordinates": [ 24.928972, 60.162724, 0.0 ] } },
{ "type": "Feature", "id": 4, "properties": { "Name": "Hietaniemenkadun yleisövessa, Rakennusvirasto, Helsinki", "Description": "Hietaniemenkatu 21, 00100 Helsinki<br>09 310 39000<br><a href=\"http:\/\/www.hel.fi\/hki\/HKR\/fi\/Viraston+palvelut+A__\/Yleis_vessat\" target=\"_blank\">kotisivut<\/a>" }, "geometry": { "type": "Point", "coordinates": [ 24.917852, 60.170815, 0.0 ] } },
{ "type": "Feature", "id": 5, "properties": { "Name": "Kaisaniemenrannan yleisövessa, Rakennusvirasto, Helsinki", "Description": "Kaisaniemenranta 2, 00100 Helsinki<br>09 310 39000<br><a href=\"http:\/\/www.hel.fi\/hki\/HKR\/fi\/Viraston+palvelut+A__\/Yleis_vessat\" target=\"_blank\">kotisivut<\/a>" }, "geometry": { "type": "Point", "coordinates": [ 24.949518, 60.175663, 0.0 ] } },
{ "type": "Feature", "id": 6, "properties": { "Name": "Kaivopuiston yleisövessa, Rakennusvirasto, Helsinki", "Description": "Ehrenströmintie 3, 00140 Helsinki<br>09 310 39000<br><a href=\"http:\/\/www.hel.fi\/hki\/HKR\/fi\/Viraston+palvelut+A__\/Yleis_vessat\" target=\"_blank\">kotisivut<\/a>" }, "geometry": { "type": "Point", "coordinates": [ 24.954931, 60.154812, 0.0 ] } },
{ "type": "Feature", "id": 7, "properties": { "Name": "Kallion urheilukentän yleisövessa, Rakennusvirasto, Helsinki", "Description": "Helsinginkatu 23, 00510 Helsinki<br>09 310 39000<br><a href=\"http:\/\/www.hel.fi\/hki\/HKR\/fi\/Viraston+palvelut+A__\/Yleis_vessat\" target=\"_blank\">kotisivut<\/a>" }, "geometry": { "type": "Point", "coordinates": [ 24.950686, 60.186775, 0.0 ] } },
{ "type": "Feature", "id": 8, "properties": { "Name": "Kappelin yleisövessa, Rakennusvirasto, Helsinki", "Description": "Eteläesplanadi 1, 00130 Helsinki<br>09 310 39000<br><a href=\"http:\/\/www.hel.fi\/hki\/HKR\/fi\/Viraston+palvelut+A__\/Yleis_vessat\" target=\"_blank\">kotisivut<\/a>" }, "geometry": { "type": "Point", "coordinates": [ 24.949692, 60.167297, 0.0 ] } },
{ "type": "Feature", "id": 9, "properties": { "Name": "Kauppatorin yleisövessa, Rakennusvirasto, Helsinki", "Description": "Kauppatori, 00170 Helsinki<br>09 310 39000<br><a href=\"http:\/\/www.hel.fi\/hki\/HKR\/fi\/Viraston+palvelut+A__\/Yleis_vessat\" target=\"_blank\">kotisivut<\/a>" }, "geometry": { "type": "Point", "coordinates": [ 24.953222, 60.166679, 0.0 ] } },
{ "type": "Feature", "id": 10, "properties": { "Name": "Lapinlahden puistikon yleisövessa, Rakennusvirasto, Helsinki", "Description": "Lapinlahden puistikko, 00180 Helsinki<br>09 310 39000<br><a href=\"http:\/\/www.hel.fi\/hki\/HKR\/fi\/Viraston+palvelut+A__\/Yleis_vessat\" target=\"_blank\">kotisivut<\/a>" }, "geometry": { "type": "Point", "coordinates": [ 24.930967, 60.166351, 0.0 ] } },
{ "type": "Feature", "id": 11, "properties": { "Name": "Lastenlehdon yleisövessa, Rakennusvirasto, Helsinki", "Description": "Lastenlehto, 00180 Helsinki<br>09 310 39000<br><a href=\"http:\/\/www.hel.fi\/hki\/HKR\/fi\/Viraston+palvelut+A__\/Yleis_vessat\" target=\"_blank\">kotisivut<\/a>" }, "geometry": { "type": "Point", "coordinates": [ 24.928293, 60.166084, 0.0 ] } },
{ "type": "Feature", "id": 12, "properties": { "Name": "Liisanpuistikon yleisövessa, Rakennusvirasto, Helsinki", "Description": "Liisanpuistikko, 00170 Helsinki<br>09 310 39000<br><a href=\"http:\/\/www.hel.fi\/hki\/HKR\/fi\/Viraston+palvelut+A__\/Yleis_vessat\" target=\"_blank\">kotisivut<\/a>" }, "geometry": { "type": "Point", "coordinates": [ 24.961172, 60.173702, 0.0 ] } },
{ "type": "Feature", "id": 13, "properties": { "Name": "Mastokadun yleisövessa, Rakennusvirasto, Helsinki", "Description": "Mastokatu 1, 00160 Helsinki<br>09 310 39000<br><a href=\"http:\/\/www.hel.fi\/hki\/HKR\/fi\/Viraston+palvelut+A__\/Yleis_vessat\" target=\"_blank\">kotisivut<\/a>" }, "geometry": { "type": "Point", "coordinates": [ 24.967718, 60.16468, 0.0 ] } },
{ "type": "Feature", "id": 14, "properties": { "Name": "Matti Heleniuksen puiston yleisövessa, Rakennusvirasto, Helsinki", "Description": "Matti Heleniuksen puisto, 00530 Helsinki<br>09 310 39000<br><a href=\"http:\/\/www.hkr.hel.fi\" target=\"_blank\">kotisivut<\/a>" }, "geometry": { "type": "Point", "coordinates": [ 24.953671, 60.18401, 0.0 ] } },
{ "type": "Feature", "id": 15, "properties": { "Name": "Merisatamanrannan yleisövessa, Rakennusvirasto, Helsinki", "Description": "Merisatamanranta 10, 00150 Helsinki<br>09 310 39000<br><a href=\"http:\/\/www.hel.fi\/hki\/HKR\/fi\/Viraston+palvelut+A__\/Yleis_vessat\" target=\"_blank\">kotisivut<\/a>" }, "geometry": { "type": "Point", "coordinates": [ 24.942566, 60.154316, 0.0 ] } },
{ "type": "Feature", "id": 16, "properties": { "Name": "Museokadun yleisövessa, Rakennusvirasto, Helsinki", "Description": "Museon puisto, 00100 Helsinki<br>09 310 39000<br><a href=\"http:\/\/www.hel.fi\/hki\/HKR\/fi\/Viraston+palvelut+A__\/Yleis_vessat\" target=\"_blank\">kotisivut<\/a>" }, "geometry": { "type": "Point", "coordinates": [ 24.930115, 60.174427, 0.0 ] } },
{ "type": "Feature", "id": 17, "properties": { "Name": "Mustikkamaan yleisövessa, Rakennusvirasto, Helsinki", "Description": "Mustikkamaanpolku 8, 00570 Helsinki<br>09 310 39000<br><a href=\"http:\/\/www.hel.fi\/hki\/HKR\/fi\/Viraston+palvelut+A__\/Yleis_vessat\" target=\"_blank\">kotisivut<\/a>" }, "geometry": { "type": "Point", "coordinates": [ 24.989588, 60.180363, 0.0 ] } },
{ "type": "Feature", "id": 18, "properties": { "Name": "Mäntymäentien yleisövessa, Rakennusvirasto, Helsinki", "Description": "Mäntymäki, 00250 Helsinki<br>09 310 39000<br><a href=\"http:\/\/www.hel.fi\/hki\/HKR\/fi\/Viraston+palvelut+A__\/Yleis_vessat\" target=\"_blank\">kotisivut<\/a>" }, "geometry": { "type": "Point", "coordinates": [ 24.930807, 60.184296, 0.0 ] } },
{ "type": "Feature", "id": 19, "properties": { "Name": "Neitsytpuiston yleisövessa, Rakennusvirasto, Helsinki", "Description": "Neitsytpuisto, 00140 Helsinki<br>09 310 39000<br><a href=\"http:\/\/www.hel.fi\/hki\/HKR\/fi\/Viraston+palvelut+A__\/Yleis_vessat\" target=\"_blank\">kotisivut<\/a>" }, "geometry": { "type": "Point", "coordinates": [ 24.950129, 60.158741, 0.0 ] } },
{ "type": "Feature", "id": 20, "properties": { "Name": "Porvoonkadun yleisövessa, Rakennusvirasto, Helsinki", "Description": "Porvoonkatu 19, 00510 Helsinki<br>09 310 39000<br><a href=\"http:\/\/www.hel.fi\/hki\/HKR\/fi\/Viraston+palvelut+A__\/Yleis_vessat\" target=\"_blank\">kotisivut<\/a>" }, "geometry": { "type": "Point", "coordinates": [ 24.945539, 60.190819, 0.0 ] } },
{ "type": "Feature", "id": 21, "properties": { "Name": "Ratakadun  yleisövessa, Rakennusvirasto, Helsinki", "Description": "Ratakatu 4, 00120 Helsinki<br>09 310 39000<br><a href=\"http:\/\/www.hel.fi\/hki\/HKR\/fi\/Viraston+palvelut+A__\/Yleis_vessat\" target=\"_blank\">kotisivut<\/a>" }, "geometry": { "type": "Point", "coordinates": [ 24.945038, 60.163338, 0.0 ] } },
{ "type": "Feature", "id": 22, "properties": { "Name": "Rautatientorin yleisövessa, Rakennusvirasto, Helsinki", "Description": "Rautatientori, 00100 Helsinki<br>09 310 39000<br><a href=\"http:\/\/www.hel.fi\/hki\/HKR\/fi\/Viraston+palvelut+A__\/Yleis_vessat\" target=\"_blank\">kotisivut<\/a>" }, "geometry": { "type": "Point", "coordinates": [ 24.94463, 60.171688, 0.0 ] } },
{ "type": "Feature", "id": 23, "properties": { "Name": "Ruoholahdentorin yleisövessa, Rakennusvirasto, Helsinki", "Description": "Ruoholahdentori, 00180 Helsinki<br>09 310 39000<br><a href=\"http:\/\/www.hel.fi\/hki\/HKR\/fi\/Viraston+palvelut+A__\/Yleis_vessat\" target=\"_blank\">kotisivut<\/a>" }, "geometry": { "type": "Point", "coordinates": [ 24.912844, 60.16235, 0.0 ] } },
{ "type": "Feature", "id": 24, "properties": { "Name": "Seurasaaren yleisövessa, Rakennusvirasto, Helsinki", "Description": "Seurasaarentie 15, 00250 Helsinki<br>09 310 39000<br><a href=\"http:\/\/www.hel.fi\/hki\/HKR\/fi\/Viraston+palvelut+A__\/Yleis_vessat\" target=\"_blank\">kotisivut<\/a>" }, "geometry": { "type": "Point", "coordinates": [ 24.88501, 60.188236, 0.0 ] } },
{ "type": "Feature", "id": 25, "properties": { "Name": "Sibeliuksen puiston yleisövessa, Rakennusvirasto, Helsinki", "Description": "Sibeliuksen puisto, 00250 Helsinki<br>09 310 39000<br><a href=\"http:\/\/www.hel.fi\/hki\/HKR\/fi\/Viraston+palvelut+A__\/Yleis_vessat\" target=\"_blank\">kotisivut<\/a>" }, "geometry": { "type": "Point", "coordinates": [ 24.913095, 60.181225, 0.0 ] } },
{ "type": "Feature", "id": 26, "properties": { "Name": "Sinebrychoffin puiston yleisövessa, Rakennusvirasto, Helsinki", "Description": "Sinebrychoffin puisto, 00120 Helsinki<br>09 310 39000<br><a href=\"http:\/\/www.hel.fi\/hki\/HKR\/fi\/Viraston+palvelut+A__\/Yleis_vessat\" target=\"_blank\">kotisivut<\/a>" }, "geometry": { "type": "Point", "coordinates": [ 24.933891, 60.162125, 0.0 ] } },
{ "type": "Feature", "id": 27, "properties": { "Name": "Sofiankadun yleisövessa, Rakennusvirasto, Helsinki", "Description": "Sofiankatu 2, 00170 Helsinki<br>09 310 39000<br><a href=\"http:\/\/www.hel.fi\/hki\/HKR\/fi\/Viraston+palvelut+A__\/Yleis_vessat\" target=\"_blank\">kotisivut<\/a>" }, "geometry": { "type": "Point", "coordinates": [ 24.951954, 60.168297, 0.0 ] } },
{ "type": "Feature", "id": 28, "properties": { "Name": "Tehtaanpuiston yleisövessa, Rakennusvirasto, Helsinki", "Description": "Tehtaanpuisto, 00150 Helsinki<br>09 310 39000<br><a href=\"http:\/\/www.hel.fi\/hki\/HKR\/fi\/Viraston+palvelut+A__\/Yleis_vessat\" target=\"_blank\">kotisivut<\/a>" }, "geometry": { "type": "Point", "coordinates": [ 24.941811, 60.15942, 0.0 ] } },
{ "type": "Feature", "id": 29, "properties": { "Name": "Tervasaaren yleisövessa, Rakennusvirasto, Helsinki", "Description": "Tervasaari, 00170 Helsinki<br>09 310 39000<br><a href=\"http:\/\/www.hel.fi\/hki\/HKR\/fi\/Viraston+palvelut+A__\/Yleis_vessat\" target=\"_blank\">kotisivut<\/a>" }, "geometry": { "type": "Point", "coordinates": [ 24.968798, 60.17382, 0.0 ] } },
{ "type": "Feature", "id": 30, "properties": { "Name": "Toivonkadun yleisövessa, Rakennusvirasto, Helsinki", "Description": "Toivonkatu 1, 00250 Helsinki<br>09 310 39000<br><a href=\"http:\/\/www.hel.fi\/hki\/HKR\/fi\/Viraston+palvelut+A__\/Yleis_vessat\" target=\"_blank\">kotisivut<\/a>" }, "geometry": { "type": "Point", "coordinates": [ 24.92543, 60.184757, 0.0 ] } },
{ "type": "Feature", "id": 31, "properties": { "Name": "Tokoinrannan yleisövessa, Rakennusvirasto, Helsinki", "Description": "Tokoinranta, 00530 Helsinki<br>09 310 39000<br><a href=\"http:\/\/www.hel.fi\/hki\/HKR\/fi\/Viraston+palvelut+A__\/Yleis_vessat\" target=\"_blank\">kotisivut<\/a>" }, "geometry": { "type": "Point", "coordinates": [ 24.944691, 60.180744, 0.0 ] } },
{ "type": "Feature", "id": 32, "properties": { "Name": "Topeliuksen puiston yleisövessa, Rakennusvirasto, Helsinki", "Description": "Topeliuksen puisto, 00250 Helsinki<br>09 310 39000<br><a href=\"http:\/\/www.hel.fi\/hki\/HKR\/fi\/Viraston+palvelut+A__\/Yleis_vessat\" target=\"_blank\">kotisivut<\/a>" }, "geometry": { "type": "Point", "coordinates": [ 24.920059, 60.181519, 0.0 ] } },
{ "type": "Feature", "id": 33, "properties": { "Name": "Töölön kisahallin yleisövessa, Rakennusvirasto, Helsinki", "Description": "Paavo Nurmen kuja 1, 00250 Helsinki<br>09 310 39000<br><a href=\"http:\/\/www.hel.fi\/hki\/HKR\/fi\/Viraston+palvelut+A__\/Yleis_vessat\" target=\"_blank\">kotisivut<\/a>" }, "geometry": { "type": "Point", "coordinates": [ 24.927118, 60.18259, 0.0 ] } },
{ "type": "Feature", "id": 34, "properties": { "Name": "Vanhan kirkkopuiston yleisövessa, Rakennusvirasto, Helsinki", "Description": "Lönnrotinkatu 6, 00120 Helsinki<br>09 310 39000<br><a href=\"http:\/\/www.hel.fi\/hki\/HKR\/fi\/Viraston+palvelut+A__\/Yleis_vessat\" target=\"_blank\">kotisivut<\/a>" }, "geometry": { "type": "Point", "coordinates": [ 24.93996, 60.166515, 0.0 ] } },
{ "type": "Feature", "id": 35, "properties": { "Name": "Varsapuistikon yleisövessa, Rakennusvirasto, Helsinki", "Description": "Varsapuistikko, 00170 Helsinki<br>09 310 39000<br><a href=\"http:\/\/www.hel.fi\/hki\/HKR\/fi\/Viraston+palvelut+A__\/Yleis_vessat\" target=\"_blank\">kotisivut<\/a>" }, "geometry": { "type": "Point", "coordinates": [ 24.949591, 60.173161, 0.0 ] } },
{ "type": "Feature", "id": 36, "properties": { "Name": "Väinö Tannerin kentän yleisövessa, Rakennusvirasto, Helsinki", "Description": "Väinö Tannerin kenttä, 00530 Helsinki<br>09 310 39000<br><a href=\"http:\/\/www.hel.fi\/hki\/HKR\/fi\/Viraston+palvelut+A__\/Yleis_vessat\" target=\"_blank\">kotisivut<\/a>" }, "geometry": { "type": "Point", "coordinates": [ 24.956926, 60.181984, 0.0 ] } }
]
}
